[
  {
    "cd_camping": "1V",
    "denominacion": "CAMPING EL SALER",
    "domicilio": "AV. DELS PINARS S/N",
    "municipio": "VALENCIA",
    "provincia": "VALENCIA",
    "cp": "46012",
    "telefono": "961831395",
    "mail": "info@campingelsaler.es",
    "url": "www.campingelsaler.es",
    "categoria": "2ª",
    "plazas": "500",
    "latitud": "39.3344",
    "longitud": "-0.3284"
  },
  {
    "cd_camping": "2V",
    "denominacion": "CAMPING DEVESA GARDENS",
    "domicilio": "CARRETERA EL SALER KM 13",
    "municipio": "VALENCIA",
    "provincia": "VALENCIA",
    "cp": "46012",
    "telefono": "961611136",
    "mail": "info@devesagardens.com",
    "url": "www.devesagardens.com",
    "categoria": "1ª",
    "plazas": "800",
    "latitud": "39.3100",
    "longitud": "-0.3200"
  },
  {
    "cd_camping": "3V",
    "denominacion": "CAMPING CARAVANING EL PALMAR",
    "domicilio": "CARRETERA EL PALMAR S/N",
    "municipio": "VALENCIA",
    "provincia": "VALENCIA",
    "cp": "46012",
    "telefono": "961621236",
    "mail": "info@campingpalmar.es",
    "url": "www.campingpalmar.es",
    "categoria": "2ª",
    "plazas": "300",
    "latitud": "39.2900",
    "longitud": "-0.3100"
  },
  {
    "cd_camping": "4A",
    "denominacion": "CAMPING VILLASOL",
    "domicilio": "AV. DR. SEVERO OCHOA S/N",
    "municipio": "BENIDORM",
    "provincia": "ALICANTE",
    "cp": "03502",
    "telefono": "965850422",
    "mail": "campingvillasol@villasol.com",
    "url": "www.campingvillasol.com",
    "categoria": "1ª",
    "plazas": "1200",
    "latitud": "38.5432",
    "longitud": "-0.1325"
  },
  {
    "cd_camping": "5A",
    "denominacion": "CAMPING BENIDORM",
    "domicilio": "CARRETERA BENIDORM-ALTEA KM 2",
    "municipio": "BENIDORM",
    "provincia": "ALICANTE",
    "cp": "03502",
    "telefono": "965863453",
    "mail": "info@campingbenidorm.com",
    "url": "www.campingbenidorm.com",
    "categoria": "2ª",
    "plazas": "600",
    "latitud": "38.5300",
    "longitud": "-0.1200"
  },
  {
    "cd_camping": "6A",
    "denominacion": "CAMPING LOS LLANOS",
    "domicilio": "PARTIDA LOS LLANOS S/N",
    "municipio": "ALICANTE",
    "provincia": "ALICANTE",
    "cp": "03008",
    "telefono": "965156906",
    "mail": "info@campinglosllanos.es",
    "url": "www.campinglosllanos.es",
    "categoria": "3ª",
    "plazas": "250",
    "latitud": "38.3452",
    "longitud": "-0.4817"
  },
  {
    "cd_camping": "7A",
    "denominacion": "CAMPING LA MARINA",
    "domicilio": "CARRETERA N-332 KM 76",
    "municipio": "LA MARINA",
    "provincia": "ALICANTE",
    "cp": "03194",
    "telefono": "965419200",
    "mail": "info@campinglamarina.com",
    "url": "www.campinglamarina.com",
    "categoria": "1ª",
    "plazas": "2000",
    "latitud": "38.1150",
    "longitud": "-0.6480"
  },
  {
    "cd_camping": "8A",
    "denominacion": "CAMPING MARJAL GUARDAMAR",
    "domicilio": "CTRA. N-332 KM 73",
    "municipio": "GUARDAMAR DEL SEGURA",
    "provincia": "ALICANTE",
    "cp": "03140",
    "telefono": "965728448",
    "mail": "info@campingmarjal.com",
    "url": "www.campingmarjal.com",
    "categoria": "1ª",
    "plazas": "1500",
    "latitud": "38.0893",
    "longitud": "-0.6560"
  },
  {
    "cd_camping": "9CS",
    "denominacion": "CAMPING TORRE LA SAL 2",
    "domicilio": "PARTIDA TORRE LA SAL S/N",
    "municipio": "CABANES",
    "provincia": "CASTELLÓN",
    "cp": "12185",
    "telefono": "964319567",
    "mail": "info@torrellasal2.com",
    "url": "www.torrellasal2.com",
    "categoria": "1ª",
    "plazas": "1800",
    "latitud": "40.1524",
    "longitud": "0.2058"
  },
  {
    "cd_camping": "10CS",
    "denominacion": "CAMPING RIBAMAR",
    "domicilio": "CARRETERA ALCOCEBRE-ALCALA S/N",
    "municipio": "ALCOSSEBRE",
    "provincia": "CASTELLÓN",
    "cp": "12579",
    "telefono": "964412201",
    "mail": "info@campingribamar.es",
    "url": "www.campingribamar.es",
    "categoria": "2ª",
    "plazas": "700",
    "latitud": "40.2580",
    "longitud": "0.2780"
  },
  {
    "cd_camping": "11CS",
    "denominacion": "CAMPING BONTERRA PARK",
    "domicilio": "AV. DE BARCELONA S/N",
    "municipio": "BENICÀSSIM",
    "provincia": "CASTELLÓN",
    "cp": "12560",
    "telefono": "964300007",
    "mail": "info@camponterra.com",
    "url": "www.campingbonterra.com",
    "categoria": "1ª",
    "plazas": "1100",
    "latitud": "40.0572",
    "longitud": "0.0704"
  },
  {
    "cd_camping": "12V",
    "denominacion": "CAMPING PINAR DE ADEMUZ",
    "domicilio": "CARRETERA VALENCIA-TERUEL KM 120",
    "municipio": "ADEMUZ",
    "provincia": "VALENCIA",
    "cp": "46140",
    "telefono": "978782153",
    "mail": "info@campingademuz.es",
    "url": "",
    "categoria": "3ª",
    "plazas": "150",
    "latitud": "40.0755",
    "longitud": "-1.2937"
  },
  {
    "cd_camping": "13V",
    "denominacion": "CAMPING SIERRA CALDERONA",
    "domicilio": "CARRETERA GILET-ESTIVELLA KM 3",
    "municipio": "GILET",
    "provincia": "VALENCIA",
    "cp": "46149",
    "telefono": "961629254",
    "mail": "info@campingcalderona.es",
    "url": "www.campingcalderona.es",
    "categoria": "2ª",
    "plazas": "200",
    "latitud": "39.6820",
    "longitud": "-0.3460"
  },
  {
    "cd_camping": "14A",
    "denominacion": "CAMPING VILLAMAR",
    "domicilio": "AV. COSTA BLANCA S/N",
    "municipio": "TORREVIEJA",
    "provincia": "ALICANTE",
    "cp": "03181",
    "telefono": "965710122",
    "mail": "info@campingvillamar.com",
    "url": "www.campingvillamar.com",
    "categoria": "2ª",
    "plazas": "400",
    "latitud": "37.9760",
    "longitud": "-0.6833"
  },
  {
    "cd_camping": "15A",
    "denominacion": "CAMPING EL PALMERAL",
    "domicilio": "CARRETERA ORIHUELA-TORREVIEJA KM 5",
    "municipio": "ORIHUELA",
    "provincia": "ALICANTE",
    "cp": "03300",
    "telefono": "966765200",
    "mail": "info@campingpalmeral.es",
    "url": "www.campingpalmeral.es",
    "categoria": "3ª",
    "plazas": "180",
    "latitud": "38.0854",
    "longitud": "-0.9476"
  }
]
